{
"type": "FeatureCollection",
"name": "hotosm_lva_railways_points_geojson",
"features": [
{ "type": "Feature", "properties": { "name": "Jelgava", "name:en": null, "railway": "station", "ele": null, "operator:type": null, "layer": null, "addr:full": null, "addr:city": null, "source": null, "name:lv": "Jelgava", "osm_id": 7799371878, "osm_type": "nodes" }, "geometry": { "type": "Point", "coordinates": [ 23.7339107, 56.641437 ] } },
{ "type": "Feature", "properties": { "name": "Olaine", "name:en": null, "railway": "station", "ele": null, "operator:type": null, "layer": null, "addr:full": null, "addr:city": null, "source": null, "name:lv": "Olaine", "osm_id": 7799405226, "osm_type": "nodes" }, "geometry": { "type": "Point", "coordinates": [ 23.946611, 56.7865359 ] } },
{ "type": "Feature", "properties": { "name": "Kūkas", "name:en": null, "railway": "station", "ele": null, "operator:type": null, "layer": null, "addr:full": null, "addr:city": null, "source": null, "name:lv": null, "osm_id": 7800956041, "osm_type": "nodes" }, "geometry": { "type": "Point", "coordinates": [ 26.0599022, 56.54011 ] } },
{ "type": "Feature", "properties": { "name": "Veseta", "name:en": null, "railway": "station", "ele": null, "operator:type": null, "layer": null, "addr:full": null, "addr:city": null, "source": null, "name:lv": "Veseta", "osm_id": 3394981506, "osm_type": "nodes" }, "geometry": { "type": "Point", "coordinates": [ 25.7928938, 56.7295801 ] } },
{ "type": "Feature", "properties": { "name": "Atašiene", "name:en": null, "railway": "station", "ele": null, "operator:type": null, "layer": null, "addr:full": null, "addr:city": null, "source": null, "name:lv": null, "osm_id": 7800956043, "osm_type": "nodes" }, "geometry": { "type": "Point", "coordinates": [ 26.4083956, 56.5301266 ] } },
{ "type": "Feature", "properties": { "name": "Burzava", "name:en": null, "railway": "station", "ele": null, "operator:type": null, "layer": null, "addr:full": null, "addr:city": null, "source": null, "name:lv": null, "osm_id": 7626973692, "osm_type": "nodes" }, "geometry": { "type": "Point", "coordinates": [ 27.3454704, 56.5867148 ] } },
{ "type": "Feature", "properties": { "name": "Mežāre", "name:en": null, "railway": "station", "ele": null, "operator:type": null, "layer": null, "addr:full": null, "addr:city": null, "source": null, "name:lv": null, "osm_id": 7800956042, "osm_type": "nodes" }, "geometry": { "type": "Point", "coordinates": [ 26.2515377, 56.5418585 ] } },
{ "type": "Feature", "properties": { "name": "Līvāni", "name:en": null, "railway": "station", "ele": null, "operator:type": null, "layer": null, "addr:full": null, "addr:city": null, "source": null, "name:lv": "Līvāni", "osm_id": 7800852786, "osm_type": "nodes" }, "geometry": { "type": "Point", "coordinates": [ 26.180671, 56.3513216 ] } },
{ "type": "Feature", "properties": { "name": "Zālīte", "name:en": null, "railway": "station", "ele": null, "operator:type": null, "layer": null, "addr:full": null, "addr:city": null, "source": null, "name:lv": "Zālīte", "osm_id": 8613669592, "osm_type": "nodes" }, "geometry": { "type": "Point", "coordinates": [ 24.0855503, 56.6414702 ] } },
{ "type": "Feature", "properties": { "name": "Āraiši", "name:en": null, "railway": "station", "ele": null, "operator:type": null, "layer": null, "addr:full": null, "addr:city": null, "source": null, "name:lv": "Āraiši", "osm_id": 7804291197, "osm_type": "nodes" }, "geometry": { "type": "Point", "coordinates": [ 25.3011972, 57.2381165 ] } },
{ "type": "Feature", "properties": { "name": "Bāle", "name:en": null, "railway": "station", "ele": null, "operator:type": null, "layer": null, "addr:full": null, "addr:city": null, "source": null, "name:lv": "Bāle", "osm_id": 7804350256, "osm_type": "nodes" }, "geometry": { "type": "Point", "coordinates": [ 25.4412648, 57.4578433 ] } },
{ "type": "Feature", "properties": { "name": "Skulte", "name:en": null, "railway": "station", "ele": null, "operator:type": null, "layer": null, "addr:full": null, "addr:city": null, "source": null, "name:lv": "Skulte", "osm_id": 268563803, "osm_type": "nodes" }, "geometry": { "type": "Point", "coordinates": [ 24.4640594, 57.3337572 ] } },
{ "type": "Feature", "properties": { "name": "Elkšķene", "name:en": null, "railway": "station", "ele": null, "operator:type": null, "layer": null, "addr:full": null, "addr:city": null, "source": null, "name:lv": null, "osm_id": 7623760243, "osm_type": "nodes" }, "geometry": { "type": "Point", "coordinates": [ 21.778907, 57.3544657 ] } },
{ "type": "Feature", "properties": { "name": "Ventspils II", "name:en": null, "railway": "station", "ele": null, "operator:type": null, "layer": null, "addr:full": null, "addr:city": null, "source": null, "name:lv": null, "osm_id": 9087715792, "osm_type": "nodes" }, "geometry": { "type": "Point", "coordinates": [ 21.6699824, 57.3843461 ] } },
{ "type": "Feature", "properties": { "name": "Zvāre", "name:en": null, "railway": "station", "ele": null, "operator:type": null, "layer": null, "addr:full": null, "addr:city": null, "source": null, "name:lv": null, "osm_id": 9087748531, "osm_type": "nodes" }, "geometry": { "type": "Point", "coordinates": [ 23.001443, 57.0186589 ] } },
{ "type": "Feature", "properties": { "name": "Spāre", "name:en": null, "railway": "station", "ele": null, "operator:type": null, "layer": null, "addr:full": null, "addr:city": null, "source": null, "name:lv": "Spāre", "osm_id": 5783720034, "osm_type": "nodes" }, "geometry": { "type": "Point", "coordinates": [ 22.2655356, 57.2153493 ] } },
{ "type": "Feature", "properties": { "name": "Slampe", "name:en": null, "railway": "station", "ele": null, "operator:type": null, "layer": null, "addr:full": null, "addr:city": null, "source": null, "name:lv": null, "osm_id": 8612649597, "osm_type": "nodes" }, "geometry": { "type": "Point", "coordinates": [ 23.2908453, 56.8441328 ] } },
{ "type": "Feature", "properties": { "name": "Stirniene", "name:en": null, "railway": "station", "ele": null, "operator:type": null, "layer": null, "addr:full": null, "addr:city": null, "source": null, "name:lv": null, "osm_id": 7800956044, "osm_type": "nodes" }, "geometry": { "type": "Point", "coordinates": [ 26.6371755, 56.5657897 ] } },
{ "type": "Feature", "properties": { "name": "Rēzekne 1", "name:en": null, "railway": "station", "ele": null, "operator:type": null, "layer": null, "addr:full": null, "addr:city": null, "source": null, "name:lv": null, "osm_id": 5763094884, "osm_type": "nodes" }, "geometry": { "type": "Point", "coordinates": [ 27.3150111, 56.5016416 ] } },
{ "type": "Feature", "properties": { "name": "Sakstagals", "name:en": null, "railway": "station", "ele": null, "operator:type": null, "layer": null, "addr:full": null, "addr:city": null, "source": null, "name:lv": null, "osm_id": 7800862649, "osm_type": "nodes" }, "geometry": { "type": "Point", "coordinates": [ 27.1520385, 56.5364737 ] } },
{ "type": "Feature", "properties": { "name": "Skrīveri", "name:en": null, "railway": "station", "ele": null, "operator:type": null, "layer": null, "addr:full": null, "addr:city": null, "source": null, "name:lv": null, "osm_id": 7800795822, "osm_type": "nodes" }, "geometry": { "type": "Point", "coordinates": [ 25.123241, 56.6471934 ] } },
{ "type": "Feature", "properties": { "name": "Jāņavārti", "name:en": null, "railway": "station", "ele": null, "operator:type": null, "layer": null, "addr:full": null, "addr:city": null, "source": null, "name:lv": "Jāņavārti", "osm_id": 7800729535, "osm_type": "nodes" }, "geometry": { "type": "Point", "coordinates": [ 24.1859546, 56.9190176 ] } },
{ "type": "Feature", "properties": { "name": "Rīga-Preču", "name:en": null, "railway": "station", "ele": null, "operator:type": null, "layer": null, "addr:full": null, "addr:city": null, "source": null, "name:lv": null, "osm_id": 9156040654, "osm_type": "nodes" }, "geometry": { "type": "Point", "coordinates": [ 24.2239201, 56.9199998 ] } },
{ "type": "Feature", "properties": { "name": "Iecava", "name:en": null, "railway": "station", "ele": null, "operator:type": null, "layer": null, "addr:full": null, "addr:city": null, "source": null, "name:lv": "Iecava", "osm_id": 443688901, "osm_type": "nodes" }, "geometry": { "type": "Point", "coordinates": [ 24.2348401, 56.6286451 ] } },
{ "type": "Feature", "properties": { "name": "Vangaži", "name:en": null, "railway": "station", "ele": null, "operator:type": null, "layer": null, "addr:full": null, "addr:city": null, "source": null, "name:lv": "Vangaži", "osm_id": 60660343, "osm_type": "nodes" }, "geometry": { "type": "Point", "coordinates": [ 24.5872763, 57.0785113 ] } },
{ "type": "Feature", "properties": { "name": "Jersika", "name:en": null, "railway": "station", "ele": null, "operator:type": null, "layer": null, "addr:full": null, "addr:city": null, "source": null, "name:lv": "Jersika", "osm_id": 7800852785, "osm_type": "nodes" }, "geometry": { "type": "Point", "coordinates": [ 26.2103593, 56.254546 ] } },
{ "type": "Feature", "properties": { "name": "Sēlpils", "name:en": null, "railway": "station", "ele": null, "operator:type": null, "layer": null, "addr:full": null, "addr:city": null, "source": null, "name:lv": null, "osm_id": 1497353160, "osm_type": "nodes" }, "geometry": { "type": "Point", "coordinates": [ 25.6176323, 56.5258262 ] } },
{ "type": "Feature", "properties": { "name": "Nīcgale", "name:en": null, "railway": "station", "ele": null, "operator:type": null, "layer": null, "addr:full": null, "addr:city": null, "source": null, "name:lv": "Nīcgale", "osm_id": 7800844384, "osm_type": "nodes" }, "geometry": { "type": "Point", "coordinates": [ 26.3717334, 56.1354471 ] } },
{ "type": "Feature", "properties": { "name": "Sarkandaugava", "name:en": null, "railway": "station", "ele": null, "operator:type": null, "layer": null, "addr:full": null, "addr:city": null, "source": null, "name:lv": "Sarkandaugava", "osm_id": 7806657162, "osm_type": "nodes" }, "geometry": { "type": "Point", "coordinates": [ 24.1337976, 56.9933162 ] } },
{ "type": "Feature", "properties": { "name": "Krāslava", "name:en": null, "railway": "station", "ele": null, "operator:type": null, "layer": null, "addr:full": null, "addr:city": null, "source": null, "name:lv": "Krāslava", "osm_id": 185614111, "osm_type": "nodes" }, "geometry": { "type": "Point", "coordinates": [ 27.1455513, 55.9253138 ] } },
{ "type": "Feature", "properties": { "name": "Saurieši", "name:en": null, "railway": "station", "ele": null, "operator:type": null, "layer": null, "addr:full": null, "addr:city": null, "source": null, "name:lv": "Saurieši", "osm_id": 60683721, "osm_type": "nodes" }, "geometry": { "type": "Point", "coordinates": [ 24.3620015, 56.9170668 ] } },
{ "type": "Feature", "properties": { "name": "Lode", "name:en": null, "railway": "station", "ele": null, "operator:type": null, "layer": null, "addr:full": null, "addr:city": null, "source": null, "name:lv": "Lode", "osm_id": 60660250, "osm_type": "nodes" }, "geometry": { "type": "Point", "coordinates": [ 25.4143294, 57.3882564 ] } },
{ "type": "Feature", "properties": { "name": "Brenguļi", "name:en": null, "railway": "station", "ele": null, "operator:type": null, "layer": null, "addr:full": null, "addr:city": null, "source": null, "name:lv": "Brenguļi", "osm_id": 7804438008, "osm_type": "nodes" }, "geometry": { "type": "Point", "coordinates": [ 25.5580831, 57.5585468 ] } },
{ "type": "Feature", "properties": { "name": "Taudejāņi", "name:en": null, "railway": "station", "ele": null, "operator:type": null, "layer": null, "addr:full": null, "addr:city": null, "source": null, "name:lv": null, "osm_id": 7800848461, "osm_type": "nodes" }, "geometry": { "type": "Point", "coordinates": [ 27.4540492, 56.5321543 ] } },
{ "type": "Feature", "properties": { "name": "Viļāni", "name:en": null, "railway": "station", "ele": null, "operator:type": null, "layer": null, "addr:full": null, "addr:city": null, "source": null, "name:lv": null, "osm_id": 7800862648, "osm_type": "nodes" }, "geometry": { "type": "Point", "coordinates": [ 26.9386689, 56.5610158 ] } },
{ "type": "Feature", "properties": { "name": "Zaļumi", "name:en": null, "railway": "station", "ele": null, "operator:type": null, "layer": null, "addr:full": null, "addr:city": null, "source": null, "name:lv": null, "osm_id": 11061375233, "osm_type": "nodes" }, "geometry": { "type": "Point", "coordinates": [ 26.6268433, 55.9924025 ] } },
{ "type": "Feature", "properties": { "name": "Varakļāni", "name:en": null, "railway": "station", "ele": null, "operator:type": null, "layer": null, "addr:full": null, "addr:city": null, "source": null, "name:lv": "Varakļāni", "osm_id": 7800956045, "osm_type": "nodes" }, "geometry": { "type": "Point", "coordinates": [ 26.7694002, 56.5605787 ] } },
{ "type": "Feature", "properties": { "name": "Dobele", "name:en": null, "railway": "station", "ele": null, "operator:type": null, "layer": null, "addr:full": null, "addr:city": null, "source": null, "name:lv": "Dobele", "osm_id": 7799371879, "osm_type": "nodes" }, "geometry": { "type": "Point", "coordinates": [ 23.2848922, 56.6286382 ] } },
{ "type": "Feature", "properties": { "name": "Bēne", "name:en": null, "railway": "station", "ele": null, "operator:type": null, "layer": null, "addr:full": null, "addr:city": null, "source": null, "name:lv": null, "osm_id": 9087748468, "osm_type": "nodes" }, "geometry": { "type": "Point", "coordinates": [ 23.0687638, 56.4802125 ] } },
{ "type": "Feature", "properties": { "name": "Cēsis", "name:en": null, "railway": "station", "ele": null, "operator:type": null, "layer": null, "addr:full": null, "addr:city": null, "source": "Ortofoto 1:10000, 2007.-2008. gads, © Latvijas Ģeotelpiskās informācijas aģentūra", "name:lv": "Cēsis", "osm_id": 7804291193, "osm_type": "nodes" }, "geometry": { "type": "Point", "coordinates": [ 25.283162, 57.3140258 ] } },
{ "type": "Feature", "properties": { "name": "Garkalne", "name:en": null, "railway": "station", "ele": null, "operator:type": null, "layer": null, "addr:full": null, "addr:city": null, "source": null, "name:lv": "Garkalne", "osm_id": 60660345, "osm_type": "nodes" }, "geometry": { "type": "Point", "coordinates": [ 24.4144193, 57.0468866 ] } },
{ "type": "Feature", "properties": { "name": "Koknese", "name:en": null, "railway": "station", "ele": null, "operator:type": null, "layer": null, "addr:full": null, "addr:city": null, "source": null, "name:lv": "Koknese", "osm_id": 7800795820, "osm_type": "nodes" }, "geometry": { "type": "Point", "coordinates": [ 25.4392666, 56.6509809 ] } },
{ "type": "Feature", "properties": { "name": "Meitene", "name:en": null, "railway": "station", "ele": null, "operator:type": null, "layer": null, "addr:full": null, "addr:city": null, "source": null, "name:lv": "Meitene", "osm_id": 1410180271, "osm_type": "nodes" }, "geometry": { "type": "Point", "coordinates": [ 23.6770716, 56.408743 ] } },
{ "type": "Feature", "properties": { "name": "Naujene", "name:en": null, "railway": "station", "ele": null, "operator:type": null, "layer": null, "addr:full": null, "addr:city": null, "source": null, "name:lv": null, "osm_id": 11016167528, "osm_type": "nodes" }, "geometry": { "type": "Point", "coordinates": [ 26.752862, 55.9348893 ] } },
{ "type": "Feature", "properties": { "name": "Ugāle", "name:en": null, "railway": "station", "ele": null, "operator:type": null, "layer": null, "addr:full": null, "addr:city": null, "source": null, "name:lv": "Ugāle", "osm_id": 60679362, "osm_type": "nodes" }, "geometry": { "type": "Point", "coordinates": [ 22.0123895, 57.2819829 ] } },
{ "type": "Feature", "properties": { "name": "Sabile", "name:en": null, "railway": "station", "ele": null, "operator:type": null, "layer": null, "addr:full": null, "addr:city": null, "source": null, "name:lv": "Sabile", "osm_id": 60679285, "osm_type": "nodes" }, "geometry": { "type": "Point", "coordinates": [ 22.6518553, 57.1314915 ] } },
{ "type": "Feature", "properties": { "name": "Skrunda", "name:en": null, "railway": "station", "ele": null, "operator:type": null, "layer": null, "addr:full": null, "addr:city": null, "source": null, "name:lv": "Skrunda", "osm_id": 7799314250, "osm_type": "nodes" }, "geometry": { "type": "Point", "coordinates": [ 22.0126929, 56.6805803 ] } },
{ "type": "Feature", "properties": { "name": "Vecumnieki", "name:en": null, "railway": "station", "ele": null, "operator:type": null, "layer": null, "addr:full": null, "addr:city": null, "source": null, "name:lv": "Vecumnieki", "osm_id": 1427507162, "osm_type": "nodes" }, "geometry": { "type": "Point", "coordinates": [ 24.5371837, 56.5903529 ] } },
{ "type": "Feature", "properties": { "name": "Torņakalns", "name:en": null, "railway": "station", "ele": null, "operator:type": null, "layer": null, "addr:full": null, "addr:city": null, "source": null, "name:lv": "Torņakalns", "osm_id": 7799405225, "osm_type": "nodes" }, "geometry": { "type": "Point", "coordinates": [ 24.0891593, 56.9326665 ] } },
{ "type": "Feature", "properties": { "name": "Valga", "name:en": null, "railway": "station", "ele": null, "operator:type": null, "layer": null, "addr:full": null, "addr:city": null, "source": "Yahoo", "name:lv": null, "osm_id": 7804437999, "osm_type": "nodes" }, "geometry": { "type": "Point", "coordinates": [ 26.0532643, 57.7746749 ] } },
{ "type": "Feature", "properties": { "name": "Daugava", "name:en": null, "railway": "station", "ele": null, "operator:type": null, "layer": null, "addr:full": null, "addr:city": null, "source": null, "name:lv": "Daugava", "osm_id": 573215794, "osm_type": "nodes" }, "geometry": { "type": "Point", "coordinates": [ 25.7194735, 56.5380233 ] } },
{ "type": "Feature", "properties": { "name": "Jāņamuiža", "name:en": null, "railway": "station", "ele": null, "operator:type": null, "layer": null, "addr:full": null, "addr:city": null, "source": null, "name:lv": "Jāņamuiža", "osm_id": 717658583, "osm_type": "nodes" }, "geometry": { "type": "Point", "coordinates": [ 25.3394989, 57.3439226 ] } },
{ "type": "Feature", "properties": { "name": "Lāčupe", "name:en": null, "railway": "station", "ele": null, "operator:type": null, "layer": null, "addr:full": null, "addr:city": null, "source": null, "name:lv": "Lāčupe", "osm_id": 6391872577, "osm_type": "nodes" }, "geometry": { "type": "Point", "coordinates": [ 24.0458858, 56.969676 ] } },
{ "type": "Feature", "properties": { "name": "Biksti", "name:en": null, "railway": "station", "ele": null, "operator:type": null, "layer": null, "addr:full": null, "addr:city": null, "source": null, "name:lv": "Biksti", "osm_id": 7799371880, "osm_type": "nodes" }, "geometry": { "type": "Point", "coordinates": [ 22.9809597, 56.6914441 ] } },
{ "type": "Feature", "properties": { "name": "Cena", "name:en": null, "railway": "station", "ele": null, "operator:type": null, "layer": null, "addr:full": null, "addr:city": null, "source": null, "name:lv": "Cena", "osm_id": 7799405227, "osm_type": "nodes" }, "geometry": { "type": "Point", "coordinates": [ 23.8329847, 56.7087036 ] } },
{ "type": "Feature", "properties": { "name": "Sloka", "name:en": null, "railway": "station", "ele": null, "operator:type": null, "layer": null, "addr:full": null, "addr:city": null, "source": "Jūrmalas Domes Pilsētplānošanas nodaļa", "name:lv": "Sloka", "osm_id": 7800554367, "osm_type": "nodes" }, "geometry": { "type": "Point", "coordinates": [ 23.6183433, 56.9474052 ] } },
{ "type": "Feature", "properties": { "name": "Tukums I", "name:en": null, "railway": "station", "ele": null, "operator:type": null, "layer": null, "addr:full": null, "addr:city": null, "source": null, "name:lv": "Tukums I", "osm_id": 7800554369, "osm_type": "nodes" }, "geometry": { "type": "Point", "coordinates": [ 23.1698621, 56.9658645 ] } },
{ "type": "Feature", "properties": { "name": "Tukums II", "name:en": null, "railway": "station", "ele": null, "operator:type": null, "layer": null, "addr:full": null, "addr:city": null, "source": null, "name:lv": "Tukums II", "osm_id": 7800554370, "osm_type": "nodes" }, "geometry": { "type": "Point", "coordinates": [ 23.1153718, 56.9596943 ] } },
{ "type": "Feature", "properties": { "name": "Priedaine", "name:en": null, "railway": "station", "ele": null, "operator:type": null, "layer": null, "addr:full": null, "addr:city": null, "source": "Jūrmalas Domes Pilsētplānošanas nodaļa", "name:lv": "Priedaine", "osm_id": 7800645043, "osm_type": "nodes" }, "geometry": { "type": "Point", "coordinates": [ 23.8869427, 56.9718965 ] } },
{ "type": "Feature", "properties": { "name": "Šķirotava", "name:en": null, "railway": "station", "ele": null, "operator:type": null, "layer": null, "addr:full": null, "addr:city": null, "source": null, "name:lv": "Šķirotava", "osm_id": 7800729534, "osm_type": "nodes" }, "geometry": { "type": "Point", "coordinates": [ 24.2110939, 56.9046971 ] } },
{ "type": "Feature", "properties": { "name": "Lielvārde", "name:en": null, "railway": "station", "ele": null, "operator:type": null, "layer": null, "addr:full": null, "addr:city": null, "source": null, "name:lv": "Lielvārde", "osm_id": 7800752441, "osm_type": "nodes" }, "geometry": { "type": "Point", "coordinates": [ 24.8077859, 56.72221 ] } },
{ "type": "Feature", "properties": { "name": "Turmantas", "name:en": null, "railway": "station", "ele": null, "operator:type": null, "layer": null, "addr:full": null, "addr:city": null, "source": null, "name:lv": null, "osm_id": 1051717364, "osm_type": "nodes" }, "geometry": { "type": "Point", "coordinates": [ 26.4653861, 55.6995275 ] } },
{ "type": "Feature", "properties": { "name": "Līgatne", "name:en": null, "railway": "station", "ele": null, "operator:type": null, "layer": null, "addr:full": null, "addr:city": null, "source": null, "name:lv": "Līgatne", "osm_id": 60660175, "osm_type": "nodes" }, "geometry": { "type": "Point", "coordinates": [ 25.0239619, 57.1842749 ] } },
{ "type": "Feature", "properties": { "name": "Inčukalns", "name:en": null, "railway": "station", "ele": null, "operator:type": null, "layer": null, "addr:full": null, "addr:city": null, "source": null, "name:lv": "Inčukalns", "osm_id": 60660342, "osm_type": "nodes" }, "geometry": { "type": "Point", "coordinates": [ 24.68654, 57.096265 ] } },
{ "type": "Feature", "properties": { "name": "Krievupe", "name:en": null, "railway": "station", "ele": null, "operator:type": null, "layer": null, "addr:full": null, "addr:city": null, "source": null, "name:lv": "Krievupe", "osm_id": 60660344, "osm_type": "nodes" }, "geometry": { "type": "Point", "coordinates": [ 24.508867, 57.0645733 ] } },
{ "type": "Feature", "properties": { "name": "Pūre", "name:en": null, "railway": "station", "ele": null, "operator:type": null, "layer": null, "addr:full": null, "addr:city": null, "source": null, "name:lv": "Pūre", "osm_id": 60679278, "osm_type": "nodes" }, "geometry": { "type": "Point", "coordinates": [ 22.895926, 57.0623734 ] } },
{ "type": "Feature", "properties": { "name": "Kandava", "name:en": null, "railway": "station", "ele": null, "operator:type": null, "layer": null, "addr:full": null, "addr:city": null, "source": null, "name:lv": "Kandava", "osm_id": 60679281, "osm_type": "nodes" }, "geometry": { "type": "Point", "coordinates": [ 22.821207, 57.0830655 ] } },
{ "type": "Feature", "properties": { "name": "Stende", "name:en": null, "railway": "station", "ele": null, "operator:type": null, "layer": null, "addr:full": null, "addr:city": null, "source": null, "name:lv": "Stende", "osm_id": 60679289, "osm_type": "nodes" }, "geometry": { "type": "Point", "coordinates": [ 22.538545, 57.1436556 ] } },
{ "type": "Feature", "properties": { "name": "Līči", "name:en": null, "railway": "station", "ele": null, "operator:type": null, "layer": null, "addr:full": null, "addr:city": null, "source": null, "name:lv": "Līči", "osm_id": 60679295, "osm_type": "nodes" }, "geometry": { "type": "Point", "coordinates": [ 22.4200404, 57.1786125 ] } },
{ "type": "Feature", "properties": { "name": "Usma", "name:en": null, "railway": "station", "ele": null, "operator:type": null, "layer": null, "addr:full": null, "addr:city": null, "source": null, "name:lv": "Usma", "osm_id": 60679336, "osm_type": "nodes" }, "geometry": { "type": "Point", "coordinates": [ 22.1705211, 57.2502096 ] } },
{ "type": "Feature", "properties": { "name": "Misa", "name:en": null, "railway": "station", "ele": null, "operator:type": null, "layer": null, "addr:full": null, "addr:city": null, "source": null, "name:lv": "Misa", "osm_id": 443688911, "osm_type": "nodes" }, "geometry": { "type": "Point", "coordinates": [ 24.3933524, 56.5918102 ] } },
{ "type": "Feature", "properties": { "name": "Lugaži", "name:en": null, "railway": "station", "ele": null, "operator:type": null, "layer": null, "addr:full": null, "addr:city": null, "source": null, "name:lv": "Lugaži", "osm_id": 7804438003, "osm_type": "nodes" }, "geometry": { "type": "Point", "coordinates": [ 26.0027075, 57.7540786 ] } },
{ "type": "Feature", "properties": { "name": "Saule", "name:en": null, "railway": "station", "ele": null, "operator:type": null, "layer": null, "addr:full": null, "addr:city": null, "source": null, "name:lv": "Saule", "osm_id": 7804438004, "osm_type": "nodes" }, "geometry": { "type": "Point", "coordinates": [ 25.893268, 57.693753 ] } },
{ "type": "Feature", "properties": { "name": "Ziemeļblāzma", "name:en": null, "railway": "station", "ele": null, "operator:type": null, "layer": null, "addr:full": null, "addr:city": null, "source": null, "name:lv": "Ziemeļblāzma", "osm_id": 7806389350, "osm_type": "nodes" }, "geometry": { "type": "Point", "coordinates": [ 24.1136575, 57.0362361 ] } },
{ "type": "Feature", "properties": { "name": "Aizkraukle", "name:en": null, "railway": "station", "ele": null, "operator:type": null, "layer": null, "addr:full": null, "addr:city": null, "source": null, "name:lv": "Aizkraukle", "osm_id": 7800795821, "osm_type": "nodes" }, "geometry": { "type": "Point", "coordinates": [ 25.2746471, 56.6226963 ] } },
{ "type": "Feature", "properties": { "name": "Līksna", "name:en": null, "railway": "station", "ele": null, "operator:type": null, "layer": null, "addr:full": null, "addr:city": null, "source": null, "name:lv": "Līksna", "osm_id": 7800844382, "osm_type": "nodes" }, "geometry": { "type": "Point", "coordinates": [ 26.4528314, 55.9980045 ] } },
{ "type": "Feature", "properties": { "name": "Vabole", "name:en": null, "railway": "station", "ele": null, "operator:type": null, "layer": null, "addr:full": null, "addr:city": null, "source": null, "name:lv": "Vabole", "osm_id": 7800844383, "osm_type": "nodes" }, "geometry": { "type": "Point", "coordinates": [ 26.4576057, 56.0407508 ] } },
{ "type": "Feature", "properties": { "name": "Cirma", "name:en": null, "railway": "station", "ele": null, "operator:type": null, "layer": null, "addr:full": null, "addr:city": null, "source": null, "name:lv": "Cirma", "osm_id": 7800848462, "osm_type": "nodes" }, "geometry": { "type": "Point", "coordinates": [ 27.5338149, 56.5336838 ] } },
{ "type": "Feature", "properties": { "name": "Istalsna", "name:en": null, "railway": "station", "ele": null, "operator:type": null, "layer": null, "addr:full": null, "addr:city": null, "source": null, "name:lv": "Istalsna", "osm_id": 7800848464, "osm_type": "nodes" }, "geometry": { "type": "Point", "coordinates": [ 27.8291278, 56.4822458 ] } },
{ "type": "Feature", "properties": { "name": "Nerza", "name:en": null, "railway": "station", "ele": null, "operator:type": null, "layer": null, "addr:full": null, "addr:city": null, "source": null, "name:lv": "Nerza", "osm_id": 7800848465, "osm_type": "nodes" }, "geometry": { "type": "Point", "coordinates": [ 27.959211, 56.4308036 ] } },
{ "type": "Feature", "properties": { "name": "Trepe", "name:en": null, "railway": "station", "ele": null, "operator:type": null, "layer": null, "addr:full": null, "addr:city": null, "source": null, "name:lv": "Trepe", "osm_id": 7800852787, "osm_type": "nodes" }, "geometry": { "type": "Point", "coordinates": [ 26.0757983, 56.4384889 ] } },
{ "type": "Feature", "properties": { "name": "Jaunkalsnava", "name:en": null, "railway": "station", "ele": null, "operator:type": null, "layer": null, "addr:full": null, "addr:city": null, "source": null, "name:lv": "Jaunkalsnava", "osm_id": 7801873747, "osm_type": "nodes" }, "geometry": { "type": "Point", "coordinates": [ 25.9773342, 56.6871358 ] } },
{ "type": "Feature", "properties": { "name": "Čiekurkalns", "name:en": null, "railway": "station", "ele": null, "operator:type": null, "layer": null, "addr:full": null, "addr:city": null, "source": null, "name:lv": "Čiekurkalns", "osm_id": 7803882004, "osm_type": "nodes" }, "geometry": { "type": "Point", "coordinates": [ 24.1685323, 56.9802881 ] } },
{ "type": "Feature", "properties": { "name": "Jugla", "name:en": null, "railway": "station", "ele": null, "operator:type": null, "layer": null, "addr:full": null, "addr:city": null, "source": null, "name:lv": "Jugla", "osm_id": 7803974031, "osm_type": "nodes" }, "geometry": { "type": "Point", "coordinates": [ 24.2350441, 56.9921661 ] } },
{ "type": "Feature", "properties": { "name": "Ieriķi", "name:en": null, "railway": "station", "ele": null, "operator:type": null, "layer": null, "addr:full": null, "addr:city": null, "source": null, "name:lv": "Ieriķi", "osm_id": 7804066716, "osm_type": "nodes" }, "geometry": { "type": "Point", "coordinates": [ 25.1727864, 57.1995089 ] } },
{ "type": "Feature", "properties": { "name": "Zilupe", "name:en": null, "railway": "station", "ele": null, "operator:type": null, "layer": null, "addr:full": null, "addr:city": null, "source": null, "name:lv": "Zilupe", "osm_id": 7800848466, "osm_type": "nodes" }, "geometry": { "type": "Point", "coordinates": [ 28.1178674, 56.3917485 ] } },
{ "type": "Feature", "properties": { "name": "Valmiera", "name:en": null, "railway": "station", "ele": null, "operator:type": null, "layer": null, "addr:full": null, "addr:city": null, "source": null, "name:lv": "Valmiera", "osm_id": 480843792, "osm_type": "nodes" }, "geometry": { "type": "Point", "coordinates": [ 25.4403565, 57.5219786 ] } },
{ "type": "Feature", "properties": { "name": "Aglona", "name:en": null, "railway": "station", "ele": null, "operator:type": null, "layer": null, "addr:full": null, "addr:city": null, "source": null, "name:lv": null, "osm_id": 5763093316, "osm_type": "nodes" }, "geometry": { "type": "Point", "coordinates": [ 26.8907303, 56.1782441 ] } },
{ "type": "Feature", "properties": { "name": "Višķi", "name:en": null, "railway": "station", "ele": null, "operator:type": null, "layer": null, "addr:full": null, "addr:city": null, "source": null, "name:lv": null, "osm_id": 5763093919, "osm_type": "nodes" }, "geometry": { "type": "Point", "coordinates": [ 26.7378716, 56.0815274 ] } },
{ "type": "Feature", "properties": { "name": "524. kilometrs", "name:en": null, "railway": "station", "ele": null, "operator:type": null, "layer": null, "addr:full": null, "addr:city": null, "source": null, "name:lv": null, "osm_id": 9904435379, "osm_type": "nodes" }, "geometry": { "type": "Point", "coordinates": [ 26.5724734, 55.9376524 ] } },
{ "type": "Feature", "properties": { "name": "Pūpoli", "name:en": null, "railway": "station", "ele": null, "operator:type": null, "layer": null, "addr:full": null, "addr:city": null, "source": null, "name:lv": null, "osm_id": 11061375262, "osm_type": "nodes" }, "geometry": { "type": "Point", "coordinates": [ 27.2198821, 56.414579 ] } },
{ "type": "Feature", "properties": { "name": "Pureņi", "name:en": null, "railway": "station", "ele": null, "operator:type": null, "layer": null, "addr:full": null, "addr:city": null, "source": null, "name:lv": "Pureņi", "osm_id": 7744835210, "osm_type": "nodes" }, "geometry": { "type": "Point", "coordinates": [ 27.6034807, 56.7511272 ] } },
{ "type": "Feature", "properties": { "name": "Liepāja", "name:en": null, "railway": "station", "ele": null, "operator:type": null, "layer": null, "addr:full": null, "addr:city": null, "source": null, "name:lv": "Liepāja", "osm_id": 7799314251, "osm_type": "nodes" }, "geometry": { "type": "Point", "coordinates": [ 21.0171213, 56.5244358 ] } },
{ "type": "Feature", "properties": { "name": "Kalniena", "name:en": null, "railway": "station", "ele": null, "operator:type": null, "layer": null, "addr:full": null, "addr:city": null, "source": null, "name:lv": "Kalniena", "osm_id": 2111363820, "osm_type": "nodes" }, "geometry": { "type": "Point", "coordinates": [ 26.9380672, 57.2586958 ] } },
{ "type": "Feature", "properties": { "name": "Līvbērze", "name:en": null, "railway": "station", "ele": null, "operator:type": null, "layer": null, "addr:full": null, "addr:city": null, "source": null, "name:lv": "Līvbērze", "osm_id": 61846939, "osm_type": "nodes" }, "geometry": { "type": "Point", "coordinates": [ 23.4632631, 56.7027427 ] } },
{ "type": "Feature", "properties": { "name": "Sigulda", "name:en": null, "railway": "station", "ele": null, "operator:type": null, "layer": null, "addr:full": null, "addr:city": null, "source": null, "name:lv": "Sigulda", "osm_id": 34032910, "osm_type": "nodes" }, "geometry": { "type": "Point", "coordinates": [ 24.8555149, 57.1531642 ] } },
{ "type": "Feature", "properties": { "name": "Saurieši", "name:en": null, "railway": "station", "ele": null, "operator:type": null, "layer": null, "addr:full": null, "addr:city": null, "source": null, "name:lv": null, "osm_id": 11748735653, "osm_type": "nodes" }, "geometry": { "type": "Point", "coordinates": [ 24.3619811, 56.9170469 ] } },
{ "type": "Feature", "properties": { "name": "Ogre", "name:en": null, "railway": "station", "ele": null, "operator:type": null, "layer": null, "addr:full": null, "addr:city": null, "source": null, "name:lv": "Ogre", "osm_id": 7800729532, "osm_type": "nodes" }, "geometry": { "type": "Point", "coordinates": [ 24.6020435, 56.8157685 ] } },
{ "type": "Feature", "properties": { "name": "Šmerlis", "name:en": null, "railway": "station", "ele": null, "operator:type": null, "layer": null, "addr:full": null, "addr:city": null, "source": null, "name:lv": null, "osm_id": 12425917056, "osm_type": "nodes" }, "geometry": { "type": "Point", "coordinates": [ 24.2003089, 56.9856238 ] } },
{ "type": "Feature", "properties": { "name": "Iļģuciema Kravas stacija", "name:en": null, "railway": "station", "ele": null, "operator:type": null, "layer": null, "addr:full": null, "addr:city": null, "source": null, "name:lv": null, "osm_id": 2790112177, "osm_type": "nodes" }, "geometry": { "type": "Point", "coordinates": [ 24.070684, 56.972654 ] } },
{ "type": "Feature", "properties": { "name": "Rīgas Centrālā stacija", "name:en": "Riga Central", "railway": "station", "ele": null, "operator:type": null, "layer": null, "addr:full": null, "addr:city": null, "source": null, "name:lv": "Centrālā stacija Rīga", "osm_id": 7799405223, "osm_type": "nodes" }, "geometry": { "type": "Point", "coordinates": [ 24.1229108, 56.9463999 ] } },
{ "type": "Feature", "properties": { "name": "Kārsava", "name:en": null, "railway": "station", "ele": null, "operator:type": null, "layer": null, "addr:full": null, "addr:city": null, "source": null, "name:lv": "Kārsava", "osm_id": 283359950, "osm_type": "nodes" }, "geometry": { "type": "Point", "coordinates": [ 27.6941018, 56.8155132 ] } },
{ "type": "Feature", "properties": { "name": "Brasa", "name:en": null, "railway": "station", "ele": null, "operator:type": null, "layer": null, "addr:full": null, "addr:city": null, "source": null, "name:lv": "Brasa", "osm_id": 1879110288, "osm_type": "nodes" }, "geometry": { "type": "Point", "coordinates": [ 24.1464726, 56.9775121 ] } },
{ "type": "Feature", "properties": { "name": "Mangaļi", "name:en": null, "railway": "station", "ele": null, "operator:type": null, "layer": null, "addr:full": null, "addr:city": null, "source": null, "name:lv": "Mangaļi", "osm_id": 1879110371, "osm_type": "nodes" }, "geometry": { "type": "Point", "coordinates": [ 24.1296303, 57.0185944 ] } },
{ "type": "Feature", "properties": { "name": "Saldus", "name:en": null, "railway": "station", "ele": null, "operator:type": null, "layer": null, "addr:full": null, "addr:city": null, "source": null, "name:lv": "Saldus", "osm_id": 7799371881, "osm_type": "nodes" }, "geometry": { "type": "Point", "coordinates": [ 22.4719549, 56.6857989 ] } },
{ "type": "Feature", "properties": { "name": "Ķemeri", "name:en": null, "railway": "station", "ele": null, "operator:type": null, "layer": null, "addr:full": null, "addr:city": null, "source": "Jūrmalas Domes Pilsētplānošanas nodaļa", "name:lv": "Ķemeri", "osm_id": 7800554368, "osm_type": "nodes" }, "geometry": { "type": "Point", "coordinates": [ 23.4904404, 56.9382389 ] } },
{ "type": "Feature", "properties": { "name": "Dubulti", "name:en": null, "railway": "station", "ele": null, "operator:type": null, "layer": null, "addr:full": null, "addr:city": null, "source": "Jūrmalas Domes Pilsētplānošanas nodaļa", "name:lv": "Dubulti", "osm_id": 7800623829, "osm_type": "nodes" }, "geometry": { "type": "Point", "coordinates": [ 23.7767275, 56.9696556 ] } },
{ "type": "Feature", "properties": { "name": "Zasulauks", "name:en": null, "railway": "station", "ele": null, "operator:type": null, "layer": null, "addr:full": null, "addr:city": null, "source": null, "name:lv": "Zasulauks", "osm_id": 7800645042, "osm_type": "nodes" }, "geometry": { "type": "Point", "coordinates": [ 24.0522052, 56.9409622 ] } },
{ "type": "Feature", "properties": { "name": "Salaspils", "name:en": null, "railway": "station", "ele": null, "operator:type": null, "layer": null, "addr:full": null, "addr:city": null, "source": null, "name:lv": "Salaspils", "osm_id": 7800729533, "osm_type": "nodes" }, "geometry": { "type": "Point", "coordinates": [ 24.3531225, 56.8604988 ] } },
{ "type": "Feature", "properties": { "name": "Krustpils", "name:en": null, "railway": "station", "ele": null, "operator:type": null, "layer": null, "addr:full": null, "addr:city": null, "source": null, "name:lv": "Krustpils", "osm_id": 7800795818, "osm_type": "nodes" }, "geometry": { "type": "Point", "coordinates": [ 25.8582963, 56.5216659 ] } },
{ "type": "Feature", "properties": { "name": "Pļaviņas", "name:en": null, "railway": "station", "ele": null, "operator:type": null, "layer": null, "addr:full": null, "addr:city": null, "source": null, "name:lv": "Pļaviņas", "osm_id": 7800795819, "osm_type": "nodes" }, "geometry": { "type": "Point", "coordinates": [ 25.7168784, 56.6171681 ] } },
{ "type": "Feature", "properties": { "name": "Daugavpils", "name:en": "Daugavpils", "railway": "station", "ele": null, "operator:type": null, "layer": null, "addr:full": null, "addr:city": null, "source": null, "name:lv": "Daugavpils", "osm_id": 7800844381, "osm_type": "nodes" }, "geometry": { "type": "Point", "coordinates": [ 26.5283553, 55.8746957 ] } },
{ "type": "Feature", "properties": { "name": "Rēzekne-2", "name:en": null, "railway": "station", "ele": null, "operator:type": null, "layer": null, "addr:full": null, "addr:city": null, "source": null, "name:lv": "Rēzekne-2", "osm_id": 7800848460, "osm_type": "nodes" }, "geometry": { "type": "Point", "coordinates": [ 27.3459849, 56.5199784 ] } },
{ "type": "Feature", "properties": { "name": "Ludza", "name:en": null, "railway": "station", "ele": null, "operator:type": null, "layer": null, "addr:full": null, "addr:city": null, "source": null, "name:lv": null, "osm_id": 7800848463, "osm_type": "nodes" }, "geometry": { "type": "Point", "coordinates": [ 27.7211554, 56.533158 ] } },
{ "type": "Feature", "properties": { "name": "Madona", "name:en": null, "railway": "station", "ele": null, "operator:type": null, "layer": null, "addr:full": null, "addr:city": null, "source": null, "name:lv": "Madona", "osm_id": 7801873739, "osm_type": "nodes" }, "geometry": { "type": "Point", "coordinates": [ 26.2203005, 56.8508458 ] } },
{ "type": "Feature", "properties": { "name": "Strenči", "name:en": null, "railway": "station", "ele": null, "operator:type": null, "layer": null, "addr:full": null, "addr:city": null, "source": null, "name:lv": "Strenči", "osm_id": 7804438005, "osm_type": "nodes" }, "geometry": { "type": "Point", "coordinates": [ 25.6983304, 57.6339601 ] } },
{ "type": "Feature", "properties": { "name": "Saulkrasti", "name:en": null, "railway": "station", "ele": null, "operator:type": null, "layer": null, "addr:full": null, "addr:city": null, "source": null, "name:lv": "Saulkrasti", "osm_id": 7806111493, "osm_type": "nodes" }, "geometry": { "type": "Point", "coordinates": [ 24.4268513, 57.2694052 ] } },
{ "type": "Feature", "properties": { "name": "Gulbene", "name:en": null, "railway": "station", "ele": null, "operator:type": null, "layer": null, "addr:full": null, "addr:city": null, "source": null, "name:lv": "Gulbene", "osm_id": 180285876, "osm_type": "nodes" }, "geometry": { "type": "Point", "coordinates": [ 26.7659153, 57.1830868 ] } },
{ "type": "Feature", "properties": { "name": "Indra", "name:en": null, "railway": "station", "ele": null, "operator:type": null, "layer": null, "addr:full": null, "addr:city": null, "source": null, "name:lv": "Indra", "osm_id": 194292068, "osm_type": "nodes" }, "geometry": { "type": "Point", "coordinates": [ 27.5412545, 55.8763825 ] } },
{ "type": "Feature", "properties": { "name": "Sece", "name:en": null, "railway": "station", "ele": null, "operator:type": null, "layer": null, "addr:full": null, "addr:city": null, "source": null, "name:lv": "Sece", "osm_id": 1386389051, "osm_type": "nodes" }, "geometry": { "type": "Point", "coordinates": [ 25.3681127, 56.5100984 ] } },
{ "type": "Feature", "properties": { "name": "Menta", "name:en": null, "railway": "station", "ele": null, "operator:type": null, "layer": null, "addr:full": null, "addr:city": null, "source": null, "name:lv": "Menta", "osm_id": 1386389199, "osm_type": "nodes" }, "geometry": { "type": "Point", "coordinates": [ 25.0979531, 56.5384549 ] } },
{ "type": "Feature", "properties": { "name": "Taurkalne", "name:en": null, "railway": "station", "ele": null, "operator:type": null, "layer": null, "addr:full": null, "addr:city": null, "source": null, "name:lv": "Taurkalne", "osm_id": 1427507094, "osm_type": "nodes" }, "geometry": { "type": "Point", "coordinates": [ 24.9356912, 56.5615773 ] } },
{ "type": "Feature", "properties": { "name": "Lāčplēsis", "name:en": null, "railway": "station", "ele": null, "operator:type": null, "layer": null, "addr:full": null, "addr:city": null, "source": null, "name:lv": "Lāčplēsis", "osm_id": 1427507098, "osm_type": "nodes" }, "geometry": { "type": "Point", "coordinates": [ 24.7928115, 56.575738 ] } },
{ "type": "Feature", "properties": { "name": "Zemitāni", "name:en": null, "railway": "station", "ele": null, "operator:type": null, "layer": null, "addr:full": null, "addr:city": null, "source": null, "name:lv": "Zemitāni", "osm_id": 1715831264, "osm_type": "nodes" }, "geometry": { "type": "Point", "coordinates": [ 24.1562997, 56.9654952 ] } },
{ "type": "Feature", "properties": { "name": "Bolderāja", "name:en": null, "railway": "station", "ele": null, "operator:type": null, "layer": null, "addr:full": null, "addr:city": null, "source": null, "name:lv": "Bolderāja", "osm_id": 1995751447, "osm_type": "nodes" }, "geometry": { "type": "Point", "coordinates": [ 24.0496854, 57.0192259 ] } },
{ "type": "Feature", "properties": { "name": "Carnikava", "name:en": null, "railway": "station", "ele": null, "operator:type": null, "layer": null, "addr:full": null, "addr:city": null, "source": null, "name:lv": "Carnikava", "osm_id": 2017901110, "osm_type": "nodes" }, "geometry": { "type": "Point", "coordinates": [ 24.2788334, 57.1279075 ] } },
{ "type": "Feature", "properties": { "name": "Lilaste", "name:en": null, "railway": "station", "ele": null, "operator:type": null, "layer": null, "addr:full": null, "addr:city": null, "source": null, "name:lv": "Lilaste", "osm_id": 2017923683, "osm_type": "nodes" }, "geometry": { "type": "Point", "coordinates": [ 24.33576, 57.1816701 ] } },
{ "type": "Feature", "properties": { "name": "Krāce", "name:en": null, "railway": "station", "ele": null, "operator:type": null, "layer": null, "addr:full": null, "addr:city": null, "source": null, "name:lv": "Krāce", "osm_id": 290688772, "osm_type": "nodes" }, "geometry": { "type": "Point", "coordinates": [ 27.0502838, 56.2727444 ] } },
{ "type": "Feature", "properties": { "name": "Ventspils-1", "name:en": null, "railway": "station", "ele": null, "operator:type": null, "layer": null, "addr:full": null, "addr:city": null, "source": null, "name:lv": "Ventspils-1", "osm_id": 252636397, "osm_type": "nodes" }, "geometry": { "type": "Point", "coordinates": [ 21.5927986, 57.3916955 ] } },
{ "type": "Feature", "properties": { "name": "Vecāķi", "name:en": null, "railway": "station", "ele": null, "operator:type": null, "layer": null, "addr:full": null, "addr:city": null, "source": null, "name:lv": "Vecāķi", "osm_id": 7806361311, "osm_type": "nodes" }, "geometry": { "type": "Point", "coordinates": [ 24.1161921, 57.0749763 ] } }
]
}
